{"success":true,"data":[{"reference":"8175263C-DCCC-4232-90AD-92AD478A5341","lang":"en","name":"Yeraz District","description":"Smart Locker is located in the \"1001 Small Things\" household goods store.","latitude":"40.21163600","longitude":"44.52104200","country":"Armenia","state":"Yerevan","city":"Yerevan","address":"Adonts 6","zip":"0014","phone":"+37460750350","type":"locker","schedules":[{"day":"mon","open":true,"start_time":"09:00:00","end_time":"21:00:00"},{"day":"tue","open":true,"start_time":"09:00:00","end_time":"21:00:00"},{"day":"wed","open":true,"start_time":"09:00:00","end_time":"21:00:00"},{"day":"thu","open":true,"start_time":"09:00:00","end_time":"21:00:00"},{"day":"fri","open":true,"start_time":"09:00:00","end_time":"21:00:00"},{"day":"sat","open":true,"start_time":"09:00:00","end_time":"21:00:00"},{"day":"sun","open":true,"start_time":"09:00:00","end_time":"21:00:00"}]},{"reference":"39C34639-88C6-4241-9B52-F455F299371B","lang":"en","name":"Metro Barekamutyun","description":"Smart Locker is located at the Metro \"Barekamutyun\" station, near the ticket window.","latitude":"40.19744100","longitude":"44.49344600","country":"Armenia","state":"Yerevan","city":"Yerevan","address":"Metro station \u201cBarekamutyun\u201d","zip":"0033","phone":"+37460750350","type":"locker","schedules":[{"day":"mon","open":true,"start_time":"07:00:00","end_time":"23:00:00"},{"day":"tue","open":true,"start_time":"07:00:00","end_time":"23:00:00"},{"day":"wed","open":true,"start_time":"07:00:00","end_time":"23:00:00"},{"day":"thu","open":true,"start_time":"07:00:00","end_time":"23:00:00"},{"day":"fri","open":true,"start_time":"07:00:00","end_time":"23:00:00"},{"day":"sat","open":true,"start_time":"07:00:00","end_time":"23:00:00"},{"day":"sun","open":true,"start_time":"07:00:00","end_time":"23:00:00"}]},{"reference":"5FAFFBCB-0094-415F-9E18-09F7AC5EF4AC","lang":"en","name":"Metro Baghramyan","description":"Smart Locker is located at the entrance hall of the Metro station \"Baghramyan\".","latitude":"40.19181400","longitude":"44.50599700","country":"Armenia","state":"Yerevan","city":"Yerevan","address":"Metro station \u201cMarshal Baghramyan\u201d","zip":"0095","phone":"+37460750350","type":"locker","schedules":[{"day":"mon","open":true,"start_time":"07:00:00","end_time":"23:00:00"},{"day":"tue","open":true,"start_time":"07:00:00","end_time":"23:00:00"},{"day":"wed","open":true,"start_time":"07:00:00","end_time":"23:00:00"},{"day":"thu","open":true,"start_time":"07:00:00","end_time":"23:00:00"},{"day":"fri","open":true,"start_time":"07:00:00","end_time":"23:00:00"},{"day":"sat","open":true,"start_time":"07:00:00","end_time":"23:00:00"},{"day":"sun","open":true,"start_time":"07:00:00","end_time":"23:00:00"}]},{"reference":"7F5356E2-0BA0-43A3-AD05-9C396E3A5E2D","lang":"en","name":"Yerevan City Komitas","description":"Smart Locker is located on the 1st floor of the supermarket, in the end of the hallway, near the escalator leading to the shopping center. ","latitude":"40.20623400","longitude":"44.52190800","country":"Armenia","state":"Yerevan","city":"Yerevan","address":"Komitas 60\/2","zip":"0014","phone":"+37460750350","type":"locker","schedules":[{"day":"mon","open":true,"start_time":"00:00:00","end_time":"24:00:00"},{"day":"tue","open":true,"start_time":"00:00:00","end_time":"24:00:00"},{"day":"wed","open":true,"start_time":"00:00:00","end_time":"24:00:00"},{"day":"thu","open":true,"start_time":"00:00:00","end_time":"24:00:00"},{"day":"fri","open":true,"start_time":"00:00:00","end_time":"24:00:00"},{"day":"sat","open":true,"start_time":"00:00:00","end_time":"24:00:00"},{"day":"sun","open":true,"start_time":"00:00:00","end_time":"24:00:00"}]},{"reference":"79341893-C9AA-4053-BAFE-7C5A4E593232","lang":"en","name":"Mergelyan","description":"Smart Locker is installed at the entrance to \"Mergelyan\" Institute.","latitude":"40.20043200","longitude":"44.49148600","country":"Armenia","state":"Yerevan","city":"Yerevan","address":"Hakob Hakobyan 3","zip":"0033","phone":"+37460750350","type":"locker","schedules":[{"day":"mon","open":true,"start_time":"08:00:00","end_time":"20:00:00"},{"day":"tue","open":true,"start_time":"08:00:00","end_time":"20:00:00"},{"day":"wed","open":true,"start_time":"08:00:00","end_time":"20:00:00"},{"day":"thu","open":true,"start_time":"08:00:00","end_time":"20:00:00"},{"day":"fri","open":true,"start_time":"08:00:00","end_time":"20:00:00"},{"day":"sat","open":true,"start_time":"08:00:00","end_time":"20:00:00"},{"day":"sun","open":true,"start_time":"08:00:00","end_time":"20:00:00"}]},{"reference":"7EC4859E-E98C-40A2-962D-872566295DA9","lang":"en","name":"Alfa-Pharm Komitasi 46","description":"Smart Locker is located at Alfa-Pharm pharmacy. ","latitude":"40.20679500","longitude":"44.51076100","country":"Armenia","state":"Yerevan","city":"Yerevan","address":"Komitas 46","zip":"0051","phone":"+37460750350","type":"locker","schedules":[{"day":"mon","open":true,"start_time":"08:00:00","end_time":"24:00:00"},{"day":"tue","open":true,"start_time":"08:00:00","end_time":"24:00:00"},{"day":"wed","open":true,"start_time":"08:00:00","end_time":"24:00:00"},{"day":"thu","open":true,"start_time":"08:00:00","end_time":"24:00:00"},{"day":"fri","open":true,"start_time":"08:00:00","end_time":"24:00:00"},{"day":"sat","open":true,"start_time":"09:00:00","end_time":"24:00:00"},{"day":"sun","open":true,"start_time":"10:00:00","end_time":"24:00:00"}]},{"reference":"D0E7B5F2-518B-41C4-A095-59DE29F4BB2E","lang":"en","name":"Alfa-Pharm Papazyan 21","description":"Smart Locker is located at Alfa-Pharm pharmacy.","latitude":"40.20443000","longitude":"44.50193400","country":"Armenia","state":"Yerevan","city":"Yerevan","address":"Vahram Papazyan 21","zip":"0012","phone":"+37460750350","type":"locker","schedules":[{"day":"mon","open":true,"start_time":"00:00:00","end_time":"24:00:00"},{"day":"tue","open":true,"start_time":"00:00:00","end_time":"24:00:00"},{"day":"wed","open":true,"start_time":"00:00:00","end_time":"24:00:00"},{"day":"thu","open":true,"start_time":"00:00:00","end_time":"24:00:00"},{"day":"fri","open":true,"start_time":"00:00:00","end_time":"24:00:00"},{"day":"sat","open":true,"start_time":"00:00:00","end_time":"24:00:00"},{"day":"sun","open":true,"start_time":"00:00:00","end_time":"24:00:00"}]},{"reference":"20E5C557-8425-403C-BE53-2D5EA18562D8","lang":"en","name":"Alfa-Pharm Kievyan 10\/76","description":"Smart Locker is located at Alfa-Pharm pharmacy. ","latitude":"40.19415300","longitude":"44.48743800","country":"Armenia","state":"Yerevan","city":"Yerevan","address":"Kievyan 10\/76","zip":"0028","phone":"+37460750350","type":"locker","schedules":[{"day":"mon","open":true,"start_time":"00:00:00","end_time":"24:00:00"},{"day":"tue","open":true,"start_time":"00:00:00","end_time":"24:00:00"},{"day":"wed","open":true,"start_time":"00:00:00","end_time":"24:00:00"},{"day":"thu","open":true,"start_time":"00:00:00","end_time":"24:00:00"},{"day":"fri","open":true,"start_time":"00:00:00","end_time":"24:00:00"},{"day":"sat","open":true,"start_time":"00:00:00","end_time":"24:00:00"},{"day":"sun","open":true,"start_time":"00:00:00","end_time":"24:00:00"}]},{"reference":"A0289C37-3358-40E5-A292-216ECA7EF817","lang":"en","name":"Garage Mall","description":"Smart Locker is located in the main hall of the \"Garage Masters' Mall\", near the escalator.","latitude":"40.20972100","longitude":"44.46451200","country":"Armenia","state":"Yerevan","city":"Yerevan","address":"Mazmanyan 1","zip":"0088","phone":"+37460750350","type":"locker","schedules":[{"day":"mon","open":true,"start_time":"10:00:00","end_time":"22:00:00"},{"day":"tue","open":true,"start_time":"10:00:00","end_time":"22:00:00"},{"day":"wed","open":true,"start_time":"10:00:00","end_time":"22:00:00"},{"day":"thu","open":true,"start_time":"10:00:00","end_time":"22:00:00"},{"day":"fri","open":true,"start_time":"10:00:00","end_time":"22:00:00"},{"day":"sat","open":true,"start_time":"10:00:00","end_time":"22:00:00"},{"day":"sun","open":true,"start_time":"10:00:00","end_time":"22:00:00"}]},{"reference":"01A339CC-04B8-49A2-8295-C8DF2E2B9608","lang":"en","name":"Tumo","description":"Smart Locker is located at TUMO Center. The locker has limited access, as one can enter the territory of the Center only with a permit.","latitude":"40.19671200","longitude":"44.48000000","country":"Armenia","state":"Yerevan","city":"Yerevan","address":"Halabyan 16","zip":"0038","phone":"+37460750350","type":"locker","schedules":[{"day":"mon","open":true,"start_time":"00:00:00","end_time":"24:00:00"},{"day":"tue","open":true,"start_time":"00:00:00","end_time":"24:00:00"},{"day":"wed","open":true,"start_time":"00:00:00","end_time":"24:00:00"},{"day":"thu","open":true,"start_time":"00:00:00","end_time":"24:00:00"},{"day":"fri","open":true,"start_time":"00:00:00","end_time":"24:00:00"},{"day":"sat","open":true,"start_time":"00:00:00","end_time":"24:00:00"},{"day":"sun","open":true,"start_time":"00:00:00","end_time":"24:00:00"}]},{"reference":"41C6CC30-BAFB-431F-AEE2-7AAD5C73D0CE","lang":"en","name":"Alfa-Pharm Shinararneri 15","description":"Smart Locker is located at Alfa-Pharm pharmacy near the market. ","latitude":"40.19555700","longitude":"44.47378200","country":"Armenia","state":"Yerevan","city":"Yerevan","address":"Shinararner 15","zip":"0099","phone":"+37460750350","type":"locker","schedules":[{"day":"mon","open":true,"start_time":"08:30:00","end_time":"21:00:00"},{"day":"tue","open":true,"start_time":"08:30:00","end_time":"21:00:00"},{"day":"wed","open":true,"start_time":"08:30:00","end_time":"21:00:00"},{"day":"thu","open":true,"start_time":"08:30:00","end_time":"21:00:00"},{"day":"fri","open":true,"start_time":"08:30:00","end_time":"21:00:00"},{"day":"sat","open":true,"start_time":"09:00:00","end_time":"20:00:00"},{"day":"sun","open":true,"start_time":"10:00:00","end_time":"20:00:00"}]},{"reference":"482E70F6-B47F-42E4-AD08-2A591C6D9B7C","lang":"en","name":"CHINAR TSARAV AGHBYUR","description":"Smart Locker is located near the supermarket\u2019s checkouts.","latitude":"40.21860900","longitude":"44.55017900","country":"Armenia","state":"Yerevan","city":"Yerevan","address":"Tsarav Aghbyur 55\/15","zip":"0052","phone":"+37460750350","type":"locker","schedules":[{"day":"mon","open":true,"start_time":"08:00:00","end_time":"24:00:00"},{"day":"tue","open":true,"start_time":"08:00:00","end_time":"24:00:00"},{"day":"wed","open":true,"start_time":"08:00:00","end_time":"24:00:00"},{"day":"thu","open":true,"start_time":"08:00:00","end_time":"24:00:00"},{"day":"fri","open":true,"start_time":"08:00:00","end_time":"24:00:00"},{"day":"sat","open":true,"start_time":"08:00:00","end_time":"24:00:00"},{"day":"sun","open":true,"start_time":"08:00:00","end_time":"24:00:00"}]},{"reference":"92C160B4-A27D-41C0-8CB5-6A7F277EF459","lang":"en","name":"Yerevan City Avan","description":"Smart Locker is located in the main entrance of Yerevan City\u2019s Avan branch.","latitude":"40.21775100","longitude":"44.58128700","country":"Armenia","state":"Yerevan","city":"Yerevan","address":"Hovhannisyan District 24\/7","zip":"0060","phone":"+37460750350","type":"locker","schedules":[{"day":"mon","open":true,"start_time":"00:00:00","end_time":"24:00:00"},{"day":"tue","open":true,"start_time":"00:00:00","end_time":"24:00:00"},{"day":"wed","open":true,"start_time":"00:00:00","end_time":"24:00:00"},{"day":"thu","open":true,"start_time":"00:00:00","end_time":"24:00:00"},{"day":"fri","open":true,"start_time":"00:00:00","end_time":"24:00:00"},{"day":"sat","open":true,"start_time":"00:00:00","end_time":"24:00:00"},{"day":"sun","open":true,"start_time":"00:00:00","end_time":"24:00:00"}]},{"reference":"1C5E5761-19BA-4225-BA41-E7BAE4747808","lang":"en","name":"Alfa-Pharm Avan-Arinj","description":"Smart Locker is located at Alfa-Pharm pharmacy.","latitude":"40.22148500","longitude":"44.57312800","country":"Armenia","state":"Yerevan","city":"Yerevan","address":"Dushanbe 4\/1","zip":"0022","phone":"+37460750350","type":"locker","schedules":[{"day":"mon","open":true,"start_time":"09:00:00","end_time":"24:00:00"},{"day":"tue","open":true,"start_time":"09:00:00","end_time":"24:00:00"},{"day":"wed","open":true,"start_time":"09:00:00","end_time":"24:00:00"},{"day":"thu","open":true,"start_time":"09:00:00","end_time":"24:00:00"},{"day":"fri","open":true,"start_time":"09:00:00","end_time":"24:00:00"},{"day":"sat","open":true,"start_time":"09:00:00","end_time":"24:00:00"},{"day":"sun","open":true,"start_time":"10:00:00","end_time":"24:00:00"}]},{"reference":"6C24ABFF-0DC6-4CA2-A219-6F8137699A0D","lang":"en","name":"Yerevan City Davitashen","description":"Smart Locker is located on the 2nd floor, near the escalator.","latitude":"40.22065000","longitude":"44.49307300","country":"Armenia","state":"Yerevan","city":"Yerevan","address":"Tigran Petrosyan 25\/5","zip":"0039","phone":"+37460750350","type":"locker","schedules":[{"day":"mon","open":true,"start_time":"12:00:00","end_time":"19:30:00"},{"day":"tue","open":true,"start_time":"12:00:00","end_time":"19:30:00"},{"day":"wed","open":true,"start_time":"12:00:00","end_time":"19:30:00"},{"day":"thu","open":true,"start_time":"12:00:00","end_time":"19:30:00"},{"day":"fri","open":true,"start_time":"12:00:00","end_time":"19:30:00"},{"day":"sat","open":true,"start_time":"12:00:00","end_time":"19:30:00"},{"day":"sun","open":true,"start_time":"12:00:00","end_time":"19:30:00"}]},{"reference":"ED5B6601-6E02-44B4-8372-3C51246C6C69","lang":"en","name":"EREBUNI MALL","description":"Smart Locker is located in the lobby leading from the underground car park to the mall.","latitude":"40.14218900","longitude":"44.52144600","country":"Armenia","state":"Yerevan","city":"Yerevan","address":"Erebuni 17\/1","zip":"0041","phone":"+37460750350","type":"locker","schedules":[{"day":"mon","open":true,"start_time":"10:00:00","end_time":"22:00:00"},{"day":"tue","open":true,"start_time":"10:00:00","end_time":"22:00:00"},{"day":"wed","open":true,"start_time":"10:00:00","end_time":"22:00:00"},{"day":"thu","open":true,"start_time":"10:00:00","end_time":"22:00:00"},{"day":"fri","open":true,"start_time":"10:00:00","end_time":"22:00:00"},{"day":"sat","open":true,"start_time":"10:00:00","end_time":"22:00:00"},{"day":"sun","open":true,"start_time":"10:00:00","end_time":"22:00:00"}]},{"reference":"39269200-CC22-40F9-8E91-0332FF7322AA","lang":"en","name":"Alfa-Pharm Khaghagh Doni 16\/5","description":"Smart Locker is located at Alfa-Pharm pharmacy. ","latitude":"40.12883800","longitude":"44.52465400","country":"Armenia","state":"Yerevan","city":"Yerevan","address":"Khaghagh Doni 16\/5","zip":"0087","phone":"+37460750350","type":"locker","schedules":[{"day":"mon","open":true,"start_time":"08:30:00","end_time":"21:00:00"},{"day":"tue","open":true,"start_time":"08:30:00","end_time":"21:00:00"},{"day":"wed","open":true,"start_time":"08:30:00","end_time":"21:00:00"},{"day":"thu","open":true,"start_time":"08:30:00","end_time":"21:00:00"},{"day":"fri","open":true,"start_time":"08:30:00","end_time":"21:00:00"},{"day":"sat","open":true,"start_time":"09:00:00","end_time":"21:00:00"},{"day":"sun","open":true,"start_time":"09:00:00","end_time":"21:00:00"}]},{"reference":"E6A0B781-967C-4D70-8F8A-F322CCCAD84E","lang":"en","name":"Dalma Mall","description":"Smart Locker is located on the -1st floor of Dalma Garden Mall, right next to Jysk store.","latitude":"40.17958100","longitude":"44.48814000","country":"Armenia","state":"Yerevan","city":"Yerevan","address":"Tsitsernakaberd 3","zip":"0082","phone":"+37460750350","type":"locker","schedules":[{"day":"mon","open":true,"start_time":"10:00:00","end_time":"22:00:00"},{"day":"tue","open":true,"start_time":"10:00:00","end_time":"22:00:00"},{"day":"wed","open":true,"start_time":"10:00:00","end_time":"22:00:00"},{"day":"thu","open":true,"start_time":"10:00:00","end_time":"22:00:00"},{"day":"fri","open":true,"start_time":"10:00:00","end_time":"22:00:00"},{"day":"sat","open":true,"start_time":"10:00:00","end_time":"22:00:00"},{"day":"sun","open":true,"start_time":"10:00:00","end_time":"22:00:00"}]},{"reference":"F6AA0318-FD19-439B-A7FB-916DEC4687E2","lang":"en","name":"Metro Yeritasardakan","description":"Smart Locker is located at the Yeritasardakan station, near the ticket window.","latitude":"40.18728300","longitude":"44.52134300","country":"Armenia","state":"Yerevan","city":"Yerevan","address":"Metro station \u201cYeritasardakan\u201d","zip":"0009","phone":"+37460750350","type":"locker","schedules":[{"day":"mon","open":true,"start_time":"07:00:00","end_time":"23:00:00"},{"day":"tue","open":true,"start_time":"07:00:00","end_time":"23:00:00"},{"day":"wed","open":true,"start_time":"07:00:00","end_time":"23:00:00"},{"day":"thu","open":true,"start_time":"07:00:00","end_time":"23:00:00"},{"day":"fri","open":true,"start_time":"07:00:00","end_time":"23:00:00"},{"day":"sat","open":true,"start_time":"07:00:00","end_time":"23:00:00"},{"day":"sun","open":true,"start_time":"07:00:00","end_time":"23:00:00"}]},{"reference":"FB4A713B-9CEB-4E86-B0F3-E578FBD72633","lang":"en","name":"Metro Hraparak","description":"Smart Locker is located at the Republic Square station, near the ticket window.","latitude":"40.17855800","longitude":"44.51598000","country":"Armenia","state":"Yerevan","city":"Yerevan","address":"Metro station \u201cRepublic Square\u201d","zip":"0001","phone":"+37460750350","type":"locker","schedules":[{"day":"mon","open":true,"start_time":"07:00:00","end_time":"23:00:00"},{"day":"tue","open":true,"start_time":"07:00:00","end_time":"23:00:00"},{"day":"wed","open":true,"start_time":"07:00:00","end_time":"23:00:00"},{"day":"thu","open":true,"start_time":"07:00:00","end_time":"23:00:00"},{"day":"fri","open":true,"start_time":"07:00:00","end_time":"23:00:00"},{"day":"sat","open":true,"start_time":"07:00:00","end_time":"23:00:00"},{"day":"sun","open":true,"start_time":"07:00:00","end_time":"23:00:00"}]},{"reference":"051DFA21-8EE0-405C-B910-0E6D78ACD3B4","lang":"en","name":"Metro Zoravar Andranik","description":"Smart Locker is located at the entrance hall of Zoravar Andranik station.","latitude":"40.16983000","longitude":"44.51361800","country":"Armenia","state":"Yerevan","city":"Yerevan","address":"Metro station \u201cZoravar Andranik\u201d","zip":"2501","phone":"+37460750350","type":"locker","schedules":[{"day":"mon","open":true,"start_time":"07:00:00","end_time":"23:00:00"},{"day":"tue","open":true,"start_time":"07:00:00","end_time":"23:00:00"},{"day":"wed","open":true,"start_time":"07:00:00","end_time":"23:00:00"},{"day":"thu","open":true,"start_time":"07:00:00","end_time":"23:00:00"},{"day":"fri","open":true,"start_time":"07:00:00","end_time":"23:00:00"},{"day":"sat","open":true,"start_time":"07:00:00","end_time":"23:00:00"},{"day":"sun","open":true,"start_time":"07:00:00","end_time":"23:00:00"}]},{"reference":"51606D59-B32E-46BF-A4A7-CB49455630A3","lang":"en","name":"Yerevan City Pak Shuka","description":"Smart Locker is located in the entrance on the right (next to ATMs).  ","latitude":"40.17841000","longitude":"44.50416900","country":"Armenia","state":"Yerevan","city":"Yerevan","address":"Mashtots 5","zip":"0015","phone":"+37460750350","type":"locker","schedules":[{"day":"mon","open":true,"start_time":"00:00:00","end_time":"24:00:00"},{"day":"tue","open":true,"start_time":"00:00:00","end_time":"24:00:00"},{"day":"wed","open":true,"start_time":"00:00:00","end_time":"24:00:00"},{"day":"thu","open":true,"start_time":"00:00:00","end_time":"24:00:00"},{"day":"fri","open":true,"start_time":"00:00:00","end_time":"24:00:00"},{"day":"sat","open":true,"start_time":"00:00:00","end_time":"24:00:00"},{"day":"sun","open":true,"start_time":"00:00:00","end_time":"24:00:00"}]},{"reference":"1F6B33F1-F7CE-4AFF-B8F9-01B794AB5AEC","lang":"en","name":"FOODPARK BY DOWNTOWN","description":"Smart Locker is located near the entrance of FoodPark by Downtown","latitude":"40.16977300","longitude":"44.48910100","country":"Armenia","state":"Yerevan","city":"Yerevan","address":"Isakov 11","zip":"0082","phone":"+37460750350","type":"locker","schedules":[{"day":"mon","open":true,"start_time":"00:00:00","end_time":"24:00:00"},{"day":"tue","open":true,"start_time":"00:00:00","end_time":"24:00:00"},{"day":"wed","open":true,"start_time":"00:00:00","end_time":"24:00:00"},{"day":"thu","open":true,"start_time":"00:00:00","end_time":"24:00:00"},{"day":"fri","open":true,"start_time":"00:00:00","end_time":"24:00:00"},{"day":"sat","open":true,"start_time":"00:00:00","end_time":"24:00:00"},{"day":"sun","open":true,"start_time":"00:00:00","end_time":"24:00:00"}]},{"reference":"A8B0F15E-F66E-45A5-86DF-60BCA0DA8E18","lang":"en","name":"Erebuni Plaza","description":"Smart Locker is located on the 2nd floor of Erebuni Plaza\u2019s lobby.","latitude":"40.17596400","longitude":"44.51227200","country":"Armenia","state":"Yerevan","city":"Yerevan","address":"Vazgen Sargsyan 26\/1","zip":"0010","phone":"+37460750350","type":"locker","schedules":[{"day":"mon","open":true,"start_time":"00:00:00","end_time":"24:00:00"},{"day":"tue","open":true,"start_time":"00:00:00","end_time":"24:00:00"},{"day":"wed","open":true,"start_time":"00:00:00","end_time":"24:00:00"},{"day":"thu","open":true,"start_time":"00:00:00","end_time":"24:00:00"},{"day":"fri","open":true,"start_time":"00:00:00","end_time":"24:00:00"},{"day":"sat","open":true,"start_time":"00:00:00","end_time":"24:00:00"},{"day":"sun","open":true,"start_time":"00:00:00","end_time":"24:00:00"}]},{"reference":"964C2AF1-C814-4A3C-AA48-7A9F3758034A","lang":"en","name":"Alfa-Pharm Khorenatsu 47","description":"Smart Locker is located at Alfa-Pharm pharmacy.","latitude":"40.16366600","longitude":"44.51654800","country":"Armenia","state":"Yerevan","city":"Yerevan","address":"Movses Khorenatsi 47","zip":"0018","phone":"+37460750350","type":"locker","schedules":[{"day":"mon","open":true,"start_time":"09:00:00","end_time":"22:00:00"},{"day":"tue","open":true,"start_time":"09:00:00","end_time":"22:00:00"},{"day":"wed","open":true,"start_time":"09:00:00","end_time":"22:00:00"},{"day":"thu","open":true,"start_time":"09:00:00","end_time":"22:00:00"},{"day":"fri","open":true,"start_time":"09:00:00","end_time":"22:00:00"},{"day":"sat","open":true,"start_time":"09:00:00","end_time":"21:00:00"},{"day":"sun","open":true,"start_time":"10:00:00","end_time":"21:00:00"}]},{"reference":"0A496A99-0C97-4B60-ABFC-98EB98A41FF7","lang":"en","name":"Alfa-Pharm Mashtotsi 31\/10","description":"Smart Locker is located at Alfa-Pharm pharmacy.","latitude":"40.18492900","longitude":"44.51217700","country":"Armenia","state":"Yerevan","city":"Yerevan","address":"Mashtots 31\/10","zip":"0002","phone":"+37460750350","type":"locker","schedules":[{"day":"mon","open":true,"start_time":"08:00:00","end_time":"01:30:00"},{"day":"tue","open":true,"start_time":"08:00:00","end_time":"01:30:00"},{"day":"wed","open":true,"start_time":"08:00:00","end_time":"01:30:00"},{"day":"thu","open":true,"start_time":"08:00:00","end_time":"01:30:00"},{"day":"fri","open":true,"start_time":"08:00:00","end_time":"01:30:00"},{"day":"sat","open":true,"start_time":"09:00:00","end_time":"01:00:00"},{"day":"sun","open":true,"start_time":"10:00:00","end_time":"01:00:00"}]},{"reference":"BA01DEDF-E4B2-49BC-80A6-FBE9923A8C18","lang":"en","name":"Moscow Cinema","description":"Smart Locker is located inside the building of the \"Moscow\" cinema.","latitude":"40.18175100","longitude":"44.51751300","country":"Armenia","state":"Yerevan","city":"Yerevan","address":"Abovyan 18","zip":"0001","phone":"+37460750350","type":"locker","schedules":[{"day":"mon","open":true,"start_time":"00:00:00","end_time":"24:00:00"},{"day":"tue","open":true,"start_time":"00:00:00","end_time":"24:00:00"},{"day":"wed","open":true,"start_time":"00:00:00","end_time":"24:00:00"},{"day":"thu","open":true,"start_time":"00:00:00","end_time":"24:00:00"},{"day":"fri","open":true,"start_time":"00:00:00","end_time":"24:00:00"},{"day":"sat","open":true,"start_time":"00:00:00","end_time":"24:00:00"},{"day":"sun","open":true,"start_time":"00:00:00","end_time":"24:00:00"}]},{"reference":"9D379A55-1D39-4C41-8739-27E4C941CCE7","lang":"en","name":"Alfa-Pharm Ohanovi 9\/1","description":"Smart Locker is located at Alfa-Pharm pharmacy.","latitude":"40.18070200","longitude":"44.44564400","country":"Armenia","state":"Yerevan","city":"Yerevan","address":"Ohanov 9\/1","zip":"0084","phone":"+37460750350","type":"locker","schedules":[{"day":"mon","open":true,"start_time":"00:00:00","end_time":"24:00:00"},{"day":"tue","open":true,"start_time":"00:00:00","end_time":"24:00:00"},{"day":"wed","open":true,"start_time":"00:00:00","end_time":"24:00:00"},{"day":"thu","open":true,"start_time":"00:00:00","end_time":"24:00:00"},{"day":"fri","open":true,"start_time":"00:00:00","end_time":"24:00:00"},{"day":"sat","open":true,"start_time":"00:00:00","end_time":"24:00:00"},{"day":"sun","open":true,"start_time":"00:00:00","end_time":"24:00:00"}]},{"reference":"9DD4557B-73E1-41C1-98D1-47B7195A9ABF","lang":"en","name":"Alfa-Pharm Raffu 39\/10","description":"Smart Locker is located at Alfa-Pharm pharmacy. ","latitude":"40.17350000","longitude":"44.44562100","country":"Armenia","state":"Yerevan","city":"Yerevan","address":"Raffi 39\/10","zip":"0034","phone":"+37460750350","type":"locker","schedules":[{"day":"mon","open":true,"start_time":"00:00:00","end_time":"24:00:00"},{"day":"tue","open":true,"start_time":"00:00:00","end_time":"24:00:00"},{"day":"wed","open":true,"start_time":"00:00:00","end_time":"24:00:00"},{"day":"thu","open":true,"start_time":"00:00:00","end_time":"24:00:00"},{"day":"fri","open":true,"start_time":"00:00:00","end_time":"24:00:00"},{"day":"sat","open":true,"start_time":"00:00:00","end_time":"24:00:00"},{"day":"sun","open":true,"start_time":"00:00:00","end_time":"24:00:00"}]},{"reference":"DF0A1111-8922-49F4-8D1E-BDF9968F98A2","lang":"en","name":"Megamall","description":"Smart Locker is located on the -2nd floor of Megamall, right in front of Vega store.","latitude":"40.19748700","longitude":"44.56742500","country":"Armenia","state":"Yerevan","city":"Yerevan","address":"Gai 16","zip":"0056","phone":"+37460750350","type":"locker","schedules":[{"day":"mon","open":true,"start_time":"00:00:00","end_time":"24:00:00"},{"day":"tue","open":true,"start_time":"00:00:00","end_time":"24:00:00"},{"day":"wed","open":true,"start_time":"00:00:00","end_time":"24:00:00"},{"day":"thu","open":true,"start_time":"00:00:00","end_time":"24:00:00"},{"day":"fri","open":true,"start_time":"00:00:00","end_time":"24:00:00"},{"day":"sat","open":true,"start_time":"00:00:00","end_time":"24:00:00"},{"day":"sun","open":true,"start_time":"00:00:00","end_time":"24:00:00"}]},{"reference":"62DA2DA4-8A9E-44CD-8C55-74019B4223A5","lang":"en","name":"Viasphere Technopark","description":"Smart Locker is located at the main entrance hall of Viasphere technopark","latitude":"40.15631500","longitude":"44.50167800","country":"Armenia","state":"Yerevan","city":"Yerevan","address":"Arshakunyats 41","zip":"0062","phone":"+37460750350","type":"locker","schedules":[{"day":"mon","open":true,"start_time":"00:00:00","end_time":"24:00:00"},{"day":"tue","open":true,"start_time":"00:00:00","end_time":"24:00:00"},{"day":"wed","open":true,"start_time":"00:00:00","end_time":"24:00:00"},{"day":"thu","open":true,"start_time":"00:00:00","end_time":"24:00:00"},{"day":"fri","open":true,"start_time":"00:00:00","end_time":"24:00:00"},{"day":"sat","open":true,"start_time":"00:00:00","end_time":"24:00:00"},{"day":"sun","open":true,"start_time":"00:00:00","end_time":"24:00:00"}]},{"reference":"ECBD884C-AB1C-42AD-AA12-A76BA09B3D6B","lang":"en","name":"Alfa-Pharm Moldovakan 4","description":"Smart Locker is located at Alfa-Pharm pharmacy.","latitude":"40.20476500","longitude":"44.56544900","country":"Armenia","state":"Yerevan","city":"Yerevan","address":"Moldovakan 4","zip":"0096","phone":"+37460750350","type":"locker","schedules":[{"day":"mon","open":true,"start_time":"09:00:00","end_time":"00:00:00"},{"day":"tue","open":true,"start_time":"09:00:00","end_time":"00:00:00"},{"day":"wed","open":true,"start_time":"09:00:00","end_time":"00:00:00"},{"day":"thu","open":true,"start_time":"09:00:00","end_time":"00:00:00"},{"day":"fri","open":true,"start_time":"09:00:00","end_time":"00:00:00"},{"day":"sat","open":true,"start_time":"09:00:00","end_time":"00:00:00"},{"day":"sun","open":true,"start_time":"10:00:00","end_time":"00:00:00"}]},{"reference":"A5575472-E79D-4BBB-8BA6-3E8A9C6865BD","lang":"en","name":"Alfa-Pharm Karakhanyan 51","description":"Smart Locker is located at Alfa-Pharm pharmacy.","latitude":"40.17557100","longitude":"44.56654000","country":"Armenia","state":"Yerevan","city":"Yerevan","address":"Karakhanyan 51","zip":"0092","phone":"+37460750350","type":"locker","schedules":[{"day":"mon","open":true,"start_time":"09:00:00","end_time":"22:00:00"},{"day":"tue","open":true,"start_time":"09:00:00","end_time":"22:00:00"},{"day":"wed","open":true,"start_time":"09:00:00","end_time":"22:00:00"},{"day":"thu","open":true,"start_time":"09:00:00","end_time":"22:00:00"},{"day":"fri","open":true,"start_time":"09:00:00","end_time":"22:00:00"},{"day":"sat","open":true,"start_time":"09:00:00","end_time":"22:00:00"},{"day":"sun","open":true,"start_time":"10:00:00","end_time":"22:00:00"}]},{"reference":"2EE57065-B868-41C0-B443-3F8C44CE3F58","lang":"en","name":"Synergy","description":"Smart Locker is located at the main entrance hall of Synergy business center. <br><br> <b>ATTENTION<\/b><br><span style='color:5dba2f'>The locker has limited access, as one can enter the territory of Synergy business center only with a permit. \u0589<\/span>","latitude":"40.19056300","longitude":"44.53224600","country":"Armenia","state":"Yerevan","city":"Yerevan","address":"Armenak Armenakyan 2\/5","zip":"0047","phone":"+37460750350","type":"locker","schedules":[{"day":"mon","open":true,"start_time":"00:00:00","end_time":"24:00:00"},{"day":"tue","open":true,"start_time":"00:00:00","end_time":"24:00:00"},{"day":"wed","open":true,"start_time":"00:00:00","end_time":"24:00:00"},{"day":"thu","open":true,"start_time":"00:00:00","end_time":"24:00:00"},{"day":"fri","open":true,"start_time":"00:00:00","end_time":"24:00:00"},{"day":"sat","open":true,"start_time":"00:00:00","end_time":"24:00:00"},{"day":"sun","open":true,"start_time":"00:00:00","end_time":"24:00:00"}]},{"reference":"7D55FAA6-A4D4-4379-9B11-96DE08B76262","lang":"en","name":"SoftConstruct","description":"Smart Locker is located at SoftConstruct company. <br><br> <b>ATTENTION<\/b><br><span style='color:5dba2f'>The locker has limited access, as one can enter the territory of the company only with a permit.<\/span>","latitude":"40.17991300","longitude":"44.53878000","country":"Armenia","state":"Yerevan","city":"Yerevan","address":"Garegin Hovsepyan 20","zip":"0047","phone":"+37460750350","type":"locker","schedules":[{"day":"mon","open":true,"start_time":"00:00:00","end_time":"24:00:00"},{"day":"tue","open":true,"start_time":"00:00:00","end_time":"24:00:00"},{"day":"wed","open":true,"start_time":"00:00:00","end_time":"24:00:00"},{"day":"thu","open":true,"start_time":"00:00:00","end_time":"24:00:00"},{"day":"fri","open":true,"start_time":"00:00:00","end_time":"24:00:00"},{"day":"sat","open":true,"start_time":"00:00:00","end_time":"24:00:00"},{"day":"sun","open":true,"start_time":"00:00:00","end_time":"24:00:00"}]},{"reference":"953C7B8C-7B98-4429-8EC0-F43EA8BBF8AC","lang":"en","name":"Yerevan Mall","description":"Smart Locker is located on the -1st floor of Yerevan Mall, next to Giordano and VS stores.","latitude":"40.15573500","longitude":"44.50027100","country":"Armenia","state":"Yerevan","city":"Yerevan","address":"Arshakunyats 34","zip":"0026","phone":"+37460750350","type":"locker","schedules":[{"day":"mon","open":true,"start_time":"10:00:00","end_time":"22:00:00"},{"day":"tue","open":true,"start_time":"10:00:00","end_time":"22:00:00"},{"day":"wed","open":true,"start_time":"10:00:00","end_time":"22:00:00"},{"day":"thu","open":true,"start_time":"10:00:00","end_time":"22:00:00"},{"day":"fri","open":true,"start_time":"10:00:00","end_time":"22:00:00"},{"day":"sat","open":true,"start_time":"10:00:00","end_time":"22:00:00"},{"day":"sun","open":true,"start_time":"10:00:00","end_time":"22:00:00"}]},{"reference":"F450AD13-732B-445F-AC92-86A4781EC28B","lang":"en","name":"Metro Garegin Nzhdeh","description":"Smart Locker is located at the entrance hall of Garegin Nzhdeh Square station.","latitude":"40.15041400","longitude":"44.48374900","country":"Armenia","state":"Yerevan","city":"Yerevan","address":"Metro station \u201cGaregin Nzhdeh Square\u201d","zip":"0046","phone":"+37460750350","type":"locker","schedules":[{"day":"mon","open":true,"start_time":"07:00:00","end_time":"23:00:00"},{"day":"tue","open":true,"start_time":"07:00:00","end_time":"23:00:00"},{"day":"wed","open":true,"start_time":"07:00:00","end_time":"23:00:00"},{"day":"thu","open":true,"start_time":"07:00:00","end_time":"23:00:00"},{"day":"fri","open":true,"start_time":"07:00:00","end_time":"23:00:00"},{"day":"sat","open":true,"start_time":"07:00:00","end_time":"23:00:00"},{"day":"sun","open":true,"start_time":"07:00:00","end_time":"23:00:00"}]},{"reference":"C1857A1B-01F4-4A56-987C-C308D4ADCBA4","lang":"en","name":"Yerevan City Tsereteli","description":"Smart Locker is located near the supermarket\u2019s checkouts.","latitude":"40.15789400","longitude":"44.46910900","country":"Armenia","state":"Yerevan","city":"Yerevan","address":"Bagratuniats 5\/3","zip":"0054","phone":"+37460750350","type":"locker","schedules":[{"day":"mon","open":true,"start_time":"00:00:00","end_time":"24:00:00"},{"day":"tue","open":true,"start_time":"00:00:00","end_time":"24:00:00"},{"day":"wed","open":true,"start_time":"00:00:00","end_time":"24:00:00"},{"day":"thu","open":true,"start_time":"00:00:00","end_time":"24:00:00"},{"day":"fri","open":true,"start_time":"00:00:00","end_time":"24:00:00"},{"day":"sat","open":true,"start_time":"00:00:00","end_time":"24:00:00"},{"day":"sun","open":true,"start_time":"00:00:00","end_time":"24:00:00"}]},{"reference":"7EFF1CF8-0110-41AC-95A6-F04E5BE60109","lang":"en","name":"Yerevan City Zeytun","description":"Smart Locker is located in the main entrance of Yerevan City\u2019s Zeytun branch. ","latitude":"40.20251500","longitude":"44.54536800","country":"Armenia","state":"Yerevan","city":"Yerevan","address":"Rubinyants 15\/5","zip":"0069","phone":"+37460750350","type":"locker","schedules":[{"day":"mon","open":true,"start_time":"00:00:00","end_time":"24:00:00"},{"day":"tue","open":true,"start_time":"00:00:00","end_time":"24:00:00"},{"day":"wed","open":true,"start_time":"00:00:00","end_time":"24:00:00"},{"day":"thu","open":true,"start_time":"00:00:00","end_time":"24:00:00"},{"day":"fri","open":true,"start_time":"00:00:00","end_time":"24:00:00"},{"day":"sat","open":true,"start_time":"00:00:00","end_time":"24:00:00"},{"day":"sun","open":true,"start_time":"00:00:00","end_time":"24:00:00"}]},{"reference":"52ED96C5-D638-4D24-A6B9-6C1A9AD603AD","lang":"en","name":"Alfa-Pharm Azatutyan 10","description":"Smart Locker is located at Alfa-Pharm pharmacy.","latitude":"40.20183600","longitude":"44.52279700","country":"Armenia","state":"Yerevan","city":"Yerevan","address":"Azatutyan 10","zip":"0037","phone":"+37460750350","type":"locker","schedules":[{"day":"mon","open":true,"start_time":"08:30:00","end_time":"24:00:00"},{"day":"tue","open":true,"start_time":"08:30:00","end_time":"24:00:00"},{"day":"wed","open":true,"start_time":"08:30:00","end_time":"24:00:00"},{"day":"thu","open":true,"start_time":"08:30:00","end_time":"24:00:00"},{"day":"fri","open":true,"start_time":"08:30:00","end_time":"24:00:00"},{"day":"sat","open":true,"start_time":"09:00:00","end_time":"24:00:00"},{"day":"sun","open":true,"start_time":"10:00:00","end_time":"24:00:00"}]},{"reference":"DC81A622-F2F2-4065-9A8D-C707F22F9360","lang":"en","name":"VAGHARSHAPATALFA-PHARMKHORENATSI 8\/1","description":"Smart Locker is located at Alfa-Pharm pharmacy.","latitude":"40.16325000","longitude":"44.29246100","country":"Armenia","state":"Armavir","city":"Vagharshapat","address":"Khorenatsi 8\/1","zip":"1105","phone":"+37460750350","type":"locker","schedules":[{"day":"mon","open":true,"start_time":"10:00:00","end_time":"22:00:00"},{"day":"tue","open":true,"start_time":"10:00:00","end_time":"22:00:00"},{"day":"wed","open":true,"start_time":"10:00:00","end_time":"22:00:00"},{"day":"thu","open":true,"start_time":"10:00:00","end_time":"22:00:00"},{"day":"fri","open":true,"start_time":"10:00:00","end_time":"22:00:00"},{"day":"sat","open":true,"start_time":"10:00:00","end_time":"22:00:00"},{"day":"sun","open":true,"start_time":"10:00:00","end_time":"22:00:00"}]},{"reference":"1501FE91-CE16-440C-8084-2A91C9C80D14","lang":"en","name":"ARMAVIR ISSO MALL","description":"Smart Locker is located on the 1-st floor of ISSOMALL mall.","latitude":"40.14647300","longitude":"44.03438600","country":"Armenia","state":"Armavir","city":"Armavir","address":"Yerevanyan 17\/3","zip":"0901","phone":"+37460750350","type":"locker","schedules":[{"day":"mon","open":true,"start_time":"09:00:00","end_time":"23:00:00"},{"day":"tue","open":true,"start_time":"09:00:00","end_time":"23:00:00"},{"day":"wed","open":true,"start_time":"09:00:00","end_time":"23:00:00"},{"day":"thu","open":true,"start_time":"09:00:00","end_time":"23:00:00"},{"day":"fri","open":true,"start_time":"09:00:00","end_time":"23:00:00"},{"day":"sat","open":true,"start_time":"09:00:00","end_time":"23:00:00"},{"day":"sun","open":true,"start_time":"09:00:00","end_time":"23:00:00"}]},{"reference":"271E55E6-ACB3-4956-BB92-6D8C97A1A9C6","lang":"en","name":"GAVAR AGAT","description":"Smart Locker is located in the \"AGAT\" store.","latitude":"40.35125700","longitude":"45.12601900","country":"Armenia","state":"Gegharkunik","city":"Gavar","address":"Boshnaghyan 4","zip":"1201","phone":"+37460750350","type":"locker","schedules":[{"day":"mon","open":true,"start_time":"09:00:00","end_time":"20:00:00"},{"day":"tue","open":true,"start_time":"09:00:00","end_time":"20:00:00"},{"day":"wed","open":true,"start_time":"09:00:00","end_time":"20:00:00"},{"day":"thu","open":true,"start_time":"09:00:00","end_time":"20:00:00"},{"day":"fri","open":true,"start_time":"09:00:00","end_time":"20:00:00"},{"day":"sat","open":true,"start_time":"09:00:00","end_time":"20:00:00"},{"day":"sun","open":true,"start_time":"09:00:00","end_time":"20:00:00"}]},{"reference":"07017C99-6DC5-469B-A639-B2AE3F7038B3","lang":"en","name":"MARTUNI CITY","description":"Smart Locker is located near the supermarket\u2019s checkouts.","latitude":"40.13998000","longitude":"45.30148700","country":"Armenia","state":"Gegharkunik","city":"Martuni","address":"Myasnikyan 24","zip":"1401","phone":"+37460750350","type":"locker","schedules":[{"day":"mon","open":true,"start_time":"08:00:00","end_time":"02:00:00"},{"day":"tue","open":true,"start_time":"08:00:00","end_time":"02:00:00"},{"day":"wed","open":true,"start_time":"08:00:00","end_time":"02:00:00"},{"day":"thu","open":true,"start_time":"08:00:00","end_time":"02:00:00"},{"day":"fri","open":true,"start_time":"08:00:00","end_time":"02:00:00"},{"day":"sat","open":true,"start_time":"08:00:00","end_time":"02:00:00"},{"day":"sun","open":true,"start_time":"08:00:00","end_time":"02:00:00"}]},{"reference":"69D2392A-E5EF-4F7D-A170-A73191D01243","lang":"en","name":"LIVAR SUPERMARKET","description":"Smart Locker is located near the supermarket\u2019s checkouts.","latitude":"40.80389000","longitude":"44.51539600","country":"Armenia","state":"Lori","city":"Vanadzor","address":"Aghayan 61","zip":"2008","phone":"+37460750350","type":"locker","schedules":[{"day":"mon","open":true,"start_time":"00:00:00","end_time":"24:00:00"},{"day":"tue","open":true,"start_time":"00:00:00","end_time":"24:00:00"},{"day":"wed","open":true,"start_time":"00:00:00","end_time":"24:00:00"},{"day":"thu","open":true,"start_time":"00:00:00","end_time":"24:00:00"},{"day":"fri","open":true,"start_time":"00:00:00","end_time":"24:00:00"},{"day":"sat","open":true,"start_time":"00:00:00","end_time":"24:00:00"},{"day":"sun","open":true,"start_time":"00:00:00","end_time":"24:00:00"}]},{"reference":"872A428E-B629-49D4-87E9-E8E204C8542A","lang":"en","name":"ALFA-PHARM 47\/11 TIGRAN METS AVE.","description":"Smart Locker is located at Alfa-Pharm pharmacy.","latitude":"40.81080600","longitude":"44.48687700","country":"Armenia","state":"Lori","city":"Vanadzor","address":"Tigran Mets 47\/11","zip":"2009","phone":"+37460750350","type":"locker","schedules":[{"day":"mon","open":true,"start_time":"10:00:00","end_time":"20:00:00"},{"day":"tue","open":true,"start_time":"09:00:00","end_time":"21:00:00"},{"day":"wed","open":true,"start_time":"09:00:00","end_time":"21:00:00"},{"day":"thu","open":true,"start_time":"09:00:00","end_time":"21:00:00"},{"day":"fri","open":true,"start_time":"09:00:00","end_time":"21:00:00"},{"day":"sat","open":true,"start_time":"09:00:00","end_time":"21:00:00"},{"day":"sun","open":true,"start_time":"09:00:00","end_time":"20:00:00"}]},{"reference":"02FE2383-891E-45E6-B745-5B94066F7B32","lang":"en","name":"ABOVYAN ORIGINAL HANRAPETUTYAN 22\/10\/1","description":"Smart Locker is located in the main entrance ofsupermarket ORIGINAL, BUSINESS HOURS","latitude":"40.27054200","longitude":"44.62676600","country":"Armenia","state":"Kotayk","city":"Abovyan","address":"Hanrapetutyan 22\/10","zip":"2202","phone":"+37460750350","type":"locker","schedules":[{"day":"mon","open":true,"start_time":"09:00:00","end_time":"24:00:00"},{"day":"tue","open":true,"start_time":"09:00:00","end_time":"24:00:00"},{"day":"wed","open":true,"start_time":"09:00:00","end_time":"24:00:00"},{"day":"thu","open":true,"start_time":"09:00:00","end_time":"24:00:00"},{"day":"fri","open":true,"start_time":"09:00:00","end_time":"24:00:00"},{"day":"sat","open":true,"start_time":"09:00:00","end_time":"24:00:00"},{"day":"sun","open":true,"start_time":"09:00:00","end_time":"24:00:00"}]},{"reference":"1BC73B45-8BF1-4EA6-891D-AD17AA2D60CC","lang":"en","name":"ABOVYAN ORIGINAL SEVAN 2","description":"Smart Locker is located in the main entrance ofsupermarket ORIGINAL, ","latitude":"40.27423500","longitude":"44.62115500","country":"Armenia","state":"Kotayk","city":"Abovyan","address":"Sevan 2","zip":"2204","phone":"+37460750350","type":"locker","schedules":[{"day":"mon","open":true,"start_time":"00:00:00","end_time":"24:00:00"},{"day":"tue","open":true,"start_time":"00:00:00","end_time":"24:00:00"},{"day":"wed","open":true,"start_time":"00:00:00","end_time":"24:00:00"},{"day":"thu","open":true,"start_time":"00:00:00","end_time":"24:00:00"},{"day":"fri","open":true,"start_time":"00:00:00","end_time":"24:00:00"},{"day":"sat","open":true,"start_time":"00:00:00","end_time":"24:00:00"},{"day":"sun","open":true,"start_time":"00:00:00","end_time":"24:00:00"}]},{"reference":"E21901F9-8308-4E87-93F7-F93BE73AD713","lang":"en","name":"ABOVYAN ORIGINAL HATIS 1\/80","description":"Smart Locker is located near the supermarket\u2019s checkouts.","latitude":"40.27800400","longitude":"44.64048800","country":"Armenia","state":"Kotayk","city":"Abovyan","address":"Hatis 1\/80","zip":"2206","phone":"+37460750350","type":"locker","schedules":[{"day":"mon","open":true,"start_time":"09:00:00","end_time":"01:00:00"},{"day":"tue","open":true,"start_time":"09:00:00","end_time":"01:00:00"},{"day":"wed","open":true,"start_time":"09:00:00","end_time":"01:00:00"},{"day":"thu","open":true,"start_time":"09:00:00","end_time":"01:00:00"},{"day":"fri","open":true,"start_time":"09:00:00","end_time":"01:00:00"},{"day":"sat","open":true,"start_time":"09:00:00","end_time":"01:00:00"},{"day":"sun","open":true,"start_time":"09:00:00","end_time":"01:00:00"}]},{"reference":"7B8D09E1-3FEF-45E4-99AD-EAD9E439F45F","lang":"en","name":"ALFA-PHARMABOVYAN 135","description":"Smart Locker is located at Alfa-Pharm pharmacy.","latitude":"40.78678500","longitude":"43.84123200","country":"Armenia","state":"Shirak","city":"Gyumri","address":"Abovyan 135","zip":"3104","phone":"+37460750350","type":"locker","schedules":[{"day":"mon","open":true,"start_time":"00:00:00","end_time":"24:00:00"},{"day":"tue","open":true,"start_time":"00:00:00","end_time":"24:00:00"},{"day":"wed","open":true,"start_time":"00:00:00","end_time":"24:00:00"},{"day":"thu","open":true,"start_time":"00:00:00","end_time":"24:00:00"},{"day":"fri","open":true,"start_time":"00:00:00","end_time":"24:00:00"},{"day":"sat","open":true,"start_time":"00:00:00","end_time":"24:00:00"},{"day":"sun","open":true,"start_time":"00:00:00","end_time":"24:00:00"}]},{"reference":"A13EEB28-6556-4321-87A1-B6E9172301DC","lang":"en","name":"ALFA-PHARM DISTRICT 58","description":"Smart Locker is located at Alfa-Pharm pharmacy.","latitude":"40.82894900","longitude":"43.82937200","country":"Armenia","state":"Shirak","city":"Gyumri","address":"Paruyr Sevak 9\/2","zip":"3126","phone":"+37460750350","type":"locker","schedules":[{"day":"mon","open":true,"start_time":"10:00:00","end_time":"20:00:00"},{"day":"tue","open":true,"start_time":"09:00:00","end_time":"21:00:00"},{"day":"wed","open":true,"start_time":"09:00:00","end_time":"21:00:00"},{"day":"thu","open":true,"start_time":"09:00:00","end_time":"21:00:00"},{"day":"fri","open":true,"start_time":"09:00:00","end_time":"21:00:00"},{"day":"sat","open":true,"start_time":"09:00:00","end_time":"21:00:00"},{"day":"sun","open":true,"start_time":"09:00:00","end_time":"20:00:00"}]},{"reference":"7F42C250-6B9E-48E4-88F7-74032F2721A1","lang":"en","name":"SUPERMARKET KARONA","description":" Smart Locker is located near the supermarket\u2019s checkouts.","latitude":"40.79340400","longitude":"43.84327700","country":"Armenia","state":"Shirak","city":"Gyumri","address":"Alek Manukyan 13","zip":"3101","phone":"+37460750350","type":"locker","schedules":[{"day":"mon","open":true,"start_time":"09:30:00","end_time":"23:00:00"},{"day":"tue","open":true,"start_time":"09:30:00","end_time":"23:00:00"},{"day":"wed","open":true,"start_time":"09:30:00","end_time":"23:00:00"},{"day":"thu","open":true,"start_time":"09:30:00","end_time":"23:00:00"},{"day":"fri","open":true,"start_time":"09:30:00","end_time":"23:00:00"},{"day":"sat","open":true,"start_time":"09:30:00","end_time":"23:00:00"},{"day":"sun","open":true,"start_time":"09:30:00","end_time":"23:00:00"}]},{"reference":"c5bb0536-cf63-4196-8162-10b488b199be","lang":"en","name":"Onex Yerevan Citadel","description":"Yerevan, Kentron - ONEX: 105\/1 Teryan street, (Citadel Business Center)","latitude":"40.18990600","longitude":"44.52219400","country":"Armenia","state":"Yerevan","city":"Yerevan","address":"Teryan 105\/1","zip":"0009","phone":"+37460750350","type":"branch","schedules":[{"day":"mon","open":true,"start_time":"09:00:00","end_time":"21:00:00"},{"day":"tue","open":true,"start_time":"09:00:00","end_time":"21:00:00"},{"day":"wed","open":true,"start_time":"09:00:00","end_time":"21:00:00"},{"day":"thu","open":true,"start_time":"09:00:00","end_time":"21:00:00"},{"day":"fri","open":true,"start_time":"09:00:00","end_time":"21:00:00"},{"day":"sat","open":true,"start_time":"09:00:00","end_time":"21:00:00"},{"day":"sun","open":true,"start_time":"12:00:00","end_time":"18:00:00"}]},{"reference":"dbb7b9c1-6ef4-4f89-b093-63a8a6f61b74","lang":"en","name":"Onex Gavar","description":"Gavar - ONEX: 20\/1 Grigor Lusavorich street","latitude":"40.35389200","longitude":"45.12585300","country":"Armenia","state":"Gegharkunik","city":"Gavar","address":"Grigor Lusavorich 20\/1","zip":"1201","phone":"+37460750350","type":"branch","schedules":[{"day":"mon","open":true,"start_time":"09:00:00","end_time":"20:00:00"},{"day":"tue","open":true,"start_time":"09:00:00","end_time":"20:00:00"},{"day":"wed","open":true,"start_time":"09:00:00","end_time":"20:00:00"},{"day":"thu","open":true,"start_time":"09:00:00","end_time":"20:00:00"},{"day":"fri","open":true,"start_time":"09:00:00","end_time":"20:00:00"},{"day":"sat","open":true,"start_time":"09:00:00","end_time":"20:00:00"},{"day":"sun","open":true,"start_time":"12:00:00","end_time":"20:00:00"}]},{"reference":"f57a800c-b666-478c-b13d-d02634d9372a","lang":"en","name":"Onex Gyumri","description":"Gyumri - ONEX : Technological center","latitude":"40.78659000","longitude":"43.83828000","country":"Armenia","state":"Shirak","city":"Gyumri","address":"Gayi 1","zip":"3105","phone":"+37495750351","type":"branch","schedules":[{"day":"mon","open":true,"start_time":"09:00:00","end_time":"20:00:00"},{"day":"tue","open":true,"start_time":"09:00:00","end_time":"20:00:00"},{"day":"wed","open":true,"start_time":"09:00:00","end_time":"20:00:00"},{"day":"thu","open":true,"start_time":"09:00:00","end_time":"20:00:00"},{"day":"fri","open":true,"start_time":"09:00:00","end_time":"20:00:00"},{"day":"sat","open":true,"start_time":"09:00:00","end_time":"20:00:00"},{"day":"sun","open":true,"start_time":"12:00:00","end_time":"20:00:00"}]},{"reference":"68563efd-f89b-4b7f-ae29-80aef413bc9d","lang":"en","name":"Onex Stepanakert","description":"Stepanakert - ONEX : 26 Azatamartikner street, Europe h\/l, 2nd floor, 207","latitude":"39.82052800","longitude":"46.75870300","country":"Armenia","state":"Artsakh","city":"Stepanakert","address":"Azatamartikner 26","zip":"0","phone":"+37460750350","type":"branch","schedules":[{"day":"mon","open":true,"start_time":"09:00:00","end_time":"20:00:00"},{"day":"tue","open":true,"start_time":"09:00:00","end_time":"20:00:00"},{"day":"wed","open":true,"start_time":"09:00:00","end_time":"20:00:00"},{"day":"thu","open":true,"start_time":"09:00:00","end_time":"20:00:00"},{"day":"fri","open":true,"start_time":"09:00:00","end_time":"20:00:00"},{"day":"sat","open":true,"start_time":"09:00:00","end_time":"20:00:00"},{"day":"sun","open":true,"start_time":"12:00:00","end_time":"20:00:00"}]},{"reference":"834b13a-bc9e-46bd-a17e-3d9c43bbdb71","lang":"en","name":"Onex Hrazdan","description":"Hrazdan - ONEX : Spandaryan 6 building","latitude":"40.50029050","longitude":"44.75117680","country":"Armenia","state":"Kotayk","city":"Hrazdan","address":"Spandaryan 6","zip":"2301","phone":"+37460750350","type":"branch","schedules":[{"day":"mon","open":true,"start_time":"09:00:00","end_time":"20:00:00"},{"day":"tue","open":true,"start_time":"09:00:00","end_time":"20:00:00"},{"day":"wed","open":true,"start_time":"09:00:00","end_time":"20:00:00"},{"day":"thu","open":true,"start_time":"09:00:00","end_time":"20:00:00"},{"day":"fri","open":true,"start_time":"09:00:00","end_time":"20:00:00"},{"day":"sat","open":true,"start_time":"09:00:00","end_time":"20:00:00"},{"day":"sun","open":true,"start_time":"12:00:00","end_time":"20:00:00"}]},{"reference":"f348241c-0624-44e3-9226-2645c8099514","lang":"en","name":"Onex Yeghegnadzor","description":"Yeghegnadzor - ONEX : 6\/4 Narekatsi street","latitude":"39.75979300","longitude":"45.33007600","country":"Armenia","state":"Vayots Dzor","city":"Yeghegnadzor","address":"Narekatsi 6\/4","zip":"3601","phone":"+37477660607","type":"branch","schedules":[{"day":"mon","open":true,"start_time":"09:00:00","end_time":"20:00:00"},{"day":"tue","open":true,"start_time":"09:00:00","end_time":"20:00:00"},{"day":"wed","open":true,"start_time":"09:00:00","end_time":"20:00:00"},{"day":"thu","open":true,"start_time":"09:00:00","end_time":"20:00:00"},{"day":"fri","open":true,"start_time":"09:00:00","end_time":"20:00:00"},{"day":"sat","open":true,"start_time":"09:00:00","end_time":"20:00:00"},{"day":"sun","open":true,"start_time":"12:00:00","end_time":"20:00:00"}]},{"reference":"b28fa5ab-319f-487d-8d1e-484cc4e47a86","lang":"en","name":"Onex Vanadzor","description":"Vanadzor - ONEX: 18 Tigran Mets street","latitude":"40.81148000","longitude":"44.48372800","country":"Armenia","state":"Lori","city":"Vanadzor","address":"Tigran Mets 18","zip":"2001","phone":"+37494602614","type":"branch","schedules":[{"day":"mon","open":true,"start_time":"09:00:00","end_time":"20:00:00"},{"day":"tue","open":true,"start_time":"09:00:00","end_time":"20:00:00"},{"day":"wed","open":true,"start_time":"09:00:00","end_time":"20:00:00"},{"day":"thu","open":true,"start_time":"09:00:00","end_time":"20:00:00"},{"day":"fri","open":true,"start_time":"09:00:00","end_time":"20:00:00"},{"day":"sat","open":true,"start_time":"09:00:00","end_time":"20:00:00"},{"day":"sun","open":true,"start_time":"12:00:00","end_time":"20:00:00"}]},{"reference":"215a8a29-c367-459d-8bd3-278be8e80998","lang":"en","name":"Onex Tbilisi","description":"Tbilisi - ONEX: Didube District, Cosmonauts Beach, N91, Floor 11, Apartment N87, Block III","latitude":"41.76112800","longitude":"44.76752070","country":"Georgia","state":null,"city":null,"address":"Didube District, Cosmonauts Beach, N91, Floor 11, Apartment N87, Block III","zip":"0154","phone":"+995599444125","type":"branch","schedules":[{"day":"mon","open":true,"start_time":"09:00:00","end_time":"21:00:00"},{"day":"tue","open":true,"start_time":"09:00:00","end_time":"21:00:00"},{"day":"wed","open":true,"start_time":"09:00:00","end_time":"21:00:00"},{"day":"thu","open":true,"start_time":"09:00:00","end_time":"21:00:00"},{"day":"fri","open":true,"start_time":"09:00:00","end_time":"21:00:00"},{"day":"sat","open":true,"start_time":"09:00:00","end_time":"21:00:00"},{"day":"sun","open":true,"start_time":"12:00:00","end_time":"18:00:00"}]}]}